[
    {
      "Date": "1/7/13",
      "Death": 1,
      "Injuries": 0,
      "Location": "Fort Myers",
      "State": "FL",
      "School Name": "Apostolic Revival Center Christian School",
      "School Type": "Preschool",
      "Latitude": 26.640628,
      "Longitude": -81.8723084
    },
    {
      "Date": "1/10/13",
      "Death": 0,
      "Injuries": 2,
      "Location": "Taft",
      "State": "CA",
      "School Name": "Taft Union High School",
      "School Type": "High School",
      "Latitude": 50.9954169,
      "Longitude": -118.6467639
    },
    {
      "Date": "1/12/13",
      "Death": 0,
      "Injuries": 1,
      "Location": "Detroit",
      "State": "MI",
      "School Name": "Osborn High School",
      "School Type": "High School",
      "Latitude": 42.3486635,
      "Longitude": -83.0567375
    },
    {
      "Date": "1/15/13",
      "Death": 0,
      "Injuries": 2,
      "Location": "St. Louis",
      "State": "MO",
      "School Name": "Stevens Institute of Business & Arts",
      "School Type": "College or University",
      "Latitude": 38.6272733,
      "Longitude": -90.1978889
    },
    {
      "Date": "1/15/13",
      "Death": 3,
      "Injuries": 0,
      "Location": "Hazard",
      "State": "KY",
      "School Name": "Hazard Community and Technical College",
      "School Type": "College or University",
      "Latitude": 37.24954,
      "Longitude": -83.1932284
    },
    {
      "Date": "1/16/13",
      "Death": 1,
      "Injuries": 0,
      "Location": "Chicago",
      "State": "IL",
      "School Name": "Chicago State University",
      "School Type": "College or University",
      "Latitude": 41.8755546,
      "Longitude": -87.6244212
    },
    {
      "Date": "1/22/13",
      "Death": 0,
      "Injuries": 3,
      "Location": "Houston",
      "State": "TX",
      "School Name": "Lone Star College North Harris Campus",
      "School Type": "College or University",
      "Latitude": 29.7589382,
      "Longitude": -95.3676974
    },
    {
      "Date": "1/31/13",
      "Death": 0,
      "Injuries": 0,
      "Location": "Phoenix",
      "State": "AZ",
      "School Name": "Cesar Chavez High School",
      "School Type": "High School",
      "Latitude": 33.4485866,
      "Longitude": -112.0773456
    },
    {
      "Date": "1/31/13",
      "Death": 0,
      "Injuries": 2,
      "Location": "Atlanta",
      "State": "GA",
      "School Name": "Price Middle School",
      "School Type": "Middle School",
      "Latitude": 33.7490987,
      "Longitude": -84.3901849
    },
    {
      "Date": "3/18/13",
      "Death": 1,
      "Injuries": 0,
      "Location": "Orlando",
      "State": "FL",
      "School Name": "University of Central Florida",
      "School Type": "College or University",
      "Latitude": 28.5423999,
      "Longitude": -81.3794368
    },
    {
      "Date": "4/12/13",
      "Death": 0,
      "Injuries": 2,
      "Location": "Christiansburg",
      "State": "VA",
      "School Name": "New River Community College",
      "School Type": "College or University",
      "Latitude": 37.1298517,
      "Longitude": -80.4089389
    },
    {
      "Date": "4/16/13",
      "Death": 0,
      "Injuries": 3,
      "Location": "Tuscaloosa",
      "State": "AL",
      "School Name": "Stillman College",
      "School Type": "College or University",
      "Latitude": 33.2668398,
      "Longitude": -87.4862182
    },
    {
      "Date": "4/18/13",
      "Death": 1,
      "Injuries": 0,
      "Location": "Cambridge",
      "State": "MA",
      "School Name": "MIT",
      "School Type": "College or University",
      "Latitude": 42.3750997,
      "Longitude": -71.1056157
    },
    {
      "Date": "5/14/13",
      "Death": 0,
      "Injuries": 0,
      "Location": "Birmingham",
      "State": "AL",
      "School Name": "Ossie Ware Mitchell Middle School",
      "School Type": "Middle School",
      "Latitude": 33.5206824,
      "Longitude": -86.8024326
    },
    {
      "Date": "6/7/13",
      "Death": 6,
      "Injuries": 4,
      "Location": "Santa Monica",
      "State": "CA",
      "School Name": "Santa Monica College",
      "School Type": "College or University",
      "Latitude": 46.724362,
      "Longitude": -75.559685
    },
    {
      "Date": "8/20/13",
      "Death": 0,
      "Injuries": 0,
      "Location": "Decatur",
      "State": "GA",
      "School Name": "Ronald E. McNair Discovery Learning Academy",
      "School Type": "Elementary School",
      "Latitude": 33.7737582,
      "Longitude": -84.296069
    },
    {
      "Date": "8/23/13",
      "Death": 1,
      "Injuries": 2,
      "Location": "Sardis",
      "State": "MS",
      "School Name": "North Panola High School",
      "School Type": "High School",
      "Latitude": 31.8009956,
      "Longitude": -90.324257
    },
    {
      "Date": "8/30/13",
      "Death": 0,
      "Injuries": 1,
      "Location": "Winston-Salem",
      "State": "NC",
      "School Name": "Carver High School",
      "School Type": "High School",
      "Latitude": 36.0998131,
      "Longitude": -80.2440518
    },
    {
      "Date": "10/4/13",
      "Death": 0,
      "Injuries": 2,
      "Location": "Pine Hills",
      "State": "FL",
      "School Name": "Agape Christian Academy",
      "School Type": "Elementary School",
      "Latitude": 28.5825505,
      "Longitude": -81.4618323
    },
    {
      "Date": "10/21/13",
      "Death": 2,
      "Injuries": 2,
      "Location": "Sparks",
      "State": "NV",
      "School Name": "Sparks Middle School",
      "School Type": "Middle School",
      "Latitude": 39.5348431,
      "Longitude": -119.7527683
    },
    {
      "Date": "11/2/13",
      "Death": 0,
      "Injuries": 1,
      "Location": "Greensboro",
      "State": "NC",
      "School Name": "North Carolina A&T State University",
      "School Type": "Preschool",
      "Latitude": 36.0726355,
      "Longitude": -79.7919754
    },
    {
      "Date": "11/3/13",
      "Death": 0,
      "Injuries": 2,
      "Location": "Stone Mountain",
      "State": "GA",
      "School Name": "Stephenson High School",
      "School Type": "High School",
      "Latitude": 33.8062166,
      "Longitude": -84.1457505
    },
    {
      "Date": "11/13/13",
      "Death": 0,
      "Injuries": 3,
      "Location": "Pittsburgh",
      "State": "PA",
      "School Name": "Brashear High School",
      "School Type": "High School",
      "Latitude": 40.4416941,
      "Longitude": -79.9900861
    },
    {
      "Date": "12/4/13",
      "Death": 0,
      "Injuries": 1,
      "Location": "Winter Garden",
      "State": "FL",
      "School Name": "West Orange High School",
      "School Type": "High School",
      "Latitude": 28.5502685,
      "Longitude": -81.59259746
    },
    {
      "Date": "12/13/13",
      "Death": 2,
      "Injuries": 0,
      "Location": "Centennial",
      "State": "CO",
      "School Name": "Arapahoe High School",
      "School Type": "High School",
      "Latitude": 39.5680644,
      "Longitude": -104.9778308
    },
    {
      "Date": "12/19/13",
      "Death": 0,
      "Injuries": 1,
      "Location": "Fresno",
      "State": "CA",
      "School Name": "Edison High School",
      "School Type": "High School",
      "Latitude": 36.7295295,
      "Longitude": -119.7088613
    },
    {
      "Date": "1/9/14",
      "Death": 0,
      "Injuries": 1,
      "Location": "Jackson",
      "State": "TN",
      "School Name": "Liberty Technology Magnet High School",
      "School Type": "High School",
      "Latitude": 35.6144446,
      "Longitude": -88.8177418
    },
    {
      "Date": "1/13/14",
      "Death": 0,
      "Injuries": 1,
      "Location": "New Haven",
      "State": "CT",
      "School Name": "Hillhouse High School",
      "School Type": "High School",
      "Latitude": 41.3082138,
      "Longitude": -72.9250518
    },
    {
      "Date": "1/14/14",
      "Death": 0,
      "Injuries": 3,
      "Location": "Roswell",
      "State": "NM",
      "School Name": "Berrendo Middle School",
      "School Type": "Middle School",
      "Latitude": 33.3943282,
      "Longitude": -104.5229518
    },
    {
      "Date": "1/17/14",
      "Death": 0,
      "Injuries": 2,
      "Location": "Philadelphia",
      "State": "PA",
      "School Name": "Delaware Valley Charter High School",
      "School Type": "High School",
      "Latitude": 39.9524152,
      "Longitude": -75.1635755
    },
    {
      "Date": "1/20/14",
      "Death": 0,
      "Injuries": 1,
      "Location": "Chester",
      "State": "PA",
      "School Name": "Widener University",
      "School Type": "College or University",
      "Latitude": 39.849557,
      "Longitude": -75.3557458
    },
    {
      "Date": "1/21/14",
      "Death": 1,
      "Injuries": 0,
      "Location": "West Lafayette",
      "State": "IN",
      "School Name": "Purdue University",
      "School Type": "College or University",
      "Latitude": 40.4258686,
      "Longitude": -86.9080655
    },
    {
      "Date": "1/24/14",
      "Death": 1,
      "Injuries": 0,
      "Location": "Orangeburg",
      "State": "SC",
      "School Name": "South Carolina State University",
      "School Type": "College or University",
      "Latitude": 33.4918203,
      "Longitude": -80.8556476
    },
    {
      "Date": "1/25/14",
      "Death": 1,
      "Injuries": 0,
      "Location": "Los Angeles",
      "State": "CA",
      "School Name": "Angeles Valley College",
      "School Type": "College or University",
      "Latitude": 34.054935,
      "Longitude": -118.244476
    },
    {
      "Date": "1/27/14",
      "Death": 0,
      "Injuries": 1,
      "Location": "Carbondale",
      "State": "IL",
      "School Name": "Rebound High School",
      "School Type": "High School",
      "Latitude": 37.7274692,
      "Longitude": -89.216655
    },
    {
      "Date": "1/28/14",
      "Death": 0,
      "Injuries": 1,
      "Location": "Nashville",
      "State": "TN",
      "School Name": "Tennessee State University",
      "School Type": "College or University",
      "Latitude": 36.1622296,
      "Longitude": -86.7743531
    },
    {
      "Date": "1/28/14",
      "Death": 0,
      "Injuries": 1,
      "Location": "Grambling",
      "State": "LA",
      "School Name": "Grambling State University",
      "School Type": "College or University",
      "Latitude": 32.5276503,
      "Longitude": -92.7140403
    },
    {
      "Date": "1/30/14",
      "Death": 0,
      "Injuries": 1,
      "Location": "Palm Bay",
      "State": "FL",
      "School Name": "Eastern Florida State College",
      "School Type": "College or University",
      "Latitude": 28.0331886,
      "Longitude": -80.6429695
    },
    {
      "Date": "1/31/14",
      "Death": 0,
      "Injuries": 1,
      "Location": "Phoenix",
      "State": "AZ",
      "School Name": "Cesar Chavez High School",
      "School Type": "High School",
      "Latitude": 33.4485866,
      "Longitude": -112.0773456
    },
    {
      "Date": "1/31/14",
      "Death": 0,
      "Injuries": 1,
      "Location": "Des Moines",
      "State": "IA",
      "School Name": "North High School",
      "School Type": "High School",
      "Latitude": 41.5910641,
      "Longitude": -93.6037149
    },
    {
      "Date": "2/10/14",
      "Death": 0,
      "Injuries": 1,
      "Location": "Salisbury",
      "State": "NC",
      "School Name": "Salisbury High School",
      "School Type": "High School",
      "Latitude": -28.7464779,
      "Longitude": 24.776729
    },
    {
      "Date": "2/10/14",
      "Death": 0,
      "Injuries": 0,
      "Location": "Lyndhurst",
      "State": "OH",
      "School Name": "Charles F. Brush High School",
      "School Type": "High School",
      "Latitude": 41.520052,
      "Longitude": -81.488732
    },
    {
      "Date": "2/12/14",
      "Death": 0,
      "Injuries": 1,
      "Location": "Los Angeles",
      "State": "CA",
      "School Name": "University of Southern California",
      "School Type": "College or University",
      "Latitude": 34.054935,
      "Longitude": -118.244476
    },
    {
      "Date": "2/22/14",
      "Death": 0,
      "Injuries": 1,
      "Location": "Augusta",
      "State": "GA",
      "School Name": "Georgia Regents University",
      "School Type": "College or University",
      "Latitude": 33.4709714,
      "Longitude": -81.9748429
    },
    {
      "Date": "3/12/14",
      "Death": 1,
      "Injuries": 0,
      "Location": "Miami",
      "State": "FL",
      "School Name": "The Academy of Knowledge Preschool",
      "School Type": "Preschool",
      "Latitude": 25.7742658,
      "Longitude": -80.1936589
    },
    {
      "Date": "4/9/14",
      "Death": 0,
      "Injuries": 0,
      "Location": "Greenville",
      "State": "NC",
      "School Name": "D. H. Conley High School",
      "School Type": "High School",
      "Latitude": 35.612661,
      "Longitude": -77.3663538
    },
    {
      "Date": "4/11/14",
      "Death": 1,
      "Injuries": 0,
      "Location": "Detroit",
      "State": "MI",
      "School Name": "East English Village Preparatory Academy",
      "School Type": "High School",
      "Latitude": 42.3486635,
      "Longitude": -83.0567375
    },
    {
      "Date": "5/4/14",
      "Death": 0,
      "Injuries": 1,
      "Location": "Augusta",
      "State": "GA",
      "School Name": "Paine College",
      "School Type": "College or University",
      "Latitude": 33.4709714,
      "Longitude": -81.9748429
    },
    {
      "Date": "5/8/14",
      "Death": 0,
      "Injuries": 1,
      "Location": "Georgetown",
      "State": "KY",
      "School Name": "Georgetown College",
      "School Type": "College or University",
      "Latitude": 19.2953549,
      "Longitude": -81.3807776
    },
    {
      "Date": "5/8/14",
      "Death": 0,
      "Injuries": 1,
      "Location": "Lawrenceville",
      "State": "GA",
      "School Name": "Georgia Gwinnett College",
      "School Type": "College or University",
      "Latitude": 33.9562149,
      "Longitude": -83.9879625
    },
    {
      "Date": "5/14/14",
      "Death": 0,
      "Injuries": 1,
      "Location": "Richmond",
      "State": "CA",
      "School Name": "John F. Kennedy High School",
      "School Type": "High School",
      "Latitude": 49.1632727,
      "Longitude": -123.1376687
    },
    {
      "Date": "6/5/14",
      "Death": 1,
      "Injuries": 3,
      "Location": "Seattle",
      "State": "WA",
      "School Name": "Seattle Pacific University",
      "School Type": "College or University",
      "Latitude": 47.6038321,
      "Longitude": -122.3300624
    },
    {
      "Date": "6/10/14",
      "Death": 2,
      "Injuries": 1,
      "Location": "Troutdale",
      "State": "OR",
      "School Name": "Reynolds High School",
      "School Type": "High School",
      "Latitude": 45.5317928,
      "Longitude": -122.391155
    },
    {
      "Date": "9/9/14",
      "Death": 0,
      "Injuries": 1,
      "Location": "Miami",
      "State": "FL",
      "School Name": "",
      "School Type": "",
      "Latitude": 25.7742658,
      "Longitude": -80.1936589
    },
    {
      "Date": "9/11/14",
      "Death": 0,
      "Injuries": 1,
      "Location": "Taylorsville",
      "State": "UT",
      "School Name": "Westbrook Elementary School",
      "School Type": "Elementary School",
      "Latitude": 40.6677517,
      "Longitude": -111.9386311
    },
    {
      "Date": "9/27/14",
      "Death": 0,
      "Injuries": 1,
      "Location": "Terre Haute",
      "State": "IN",
      "School Name": "Indiana State University",
      "School Type": "College or University",
      "Latitude": 39.4667025,
      "Longitude": -87.4139119
    },
    {
      "Date": "9/30/14",
      "Death": 0,
      "Injuries": 1,
      "Location": "Albermarle",
      "State": "NC",
      "School Name": "Abermarle High school",
      "School Type": "High School",
      "Latitude": 35.60846655,
      "Longitude": -82.543505
    },
    {
      "Date": "9/30/14",
      "Death": 0,
      "Injuries": 1,
      "Location": "Louisville",
      "State": "KY",
      "School Name": "Fern Creek High School",
      "School Type": "High School",
      "Latitude": 38.2542376,
      "Longitude": -85.759407
    },
    {
      "Date": "10/3/14",
      "Death": 1,
      "Injuries": 0,
      "Location": "Fairburn",
      "State": "GA",
      "School Name": "Langston Hughes High School",
      "School Type": "High School",
      "Latitude": 33.5670562,
      "Longitude": -84.5810418
    },
    {
      "Date": "10/24/14",
      "Death": 5,
      "Injuries": 1,
      "Location": "Marysville",
      "State": "WA",
      "School Name": "Marysville Pilchuck High School",
      "School Type": "High School",
      "Latitude": 48.0517429,
      "Longitude": -122.1768209
    },
    {
      "Date": "11/20/14",
      "Death": 1,
      "Injuries": 3,
      "Location": "Tallahasse",
      "State": "FL",
      "School Name": "Florida State University",
      "School Type": "College or University",
      "Latitude": 29.9812352,
      "Longitude": -81.9841945
    },
    {
      "Date": "11/20/14",
      "Death": 1,
      "Injuries": 1,
      "Location": "Miami",
      "State": "FL",
      "School Name": "Miami Carol City High School",
      "School Type": "High School",
      "Latitude": 25.7742658,
      "Longitude": -80.1936589
    },
    {
      "Date": "12/5/14",
      "Death": 1,
      "Injuries": 0,
      "Location": "Claremore",
      "State": "OK",
      "School Name": "Rogers State University",
      "School Type": "College or University",
      "Latitude": 36.3125897,
      "Longitude": -95.6158701
    },
    {
      "Date": "12/12/14",
      "Death": 0,
      "Injuries": 4,
      "Location": "Portland",
      "State": "OR",
      "School Name": "Rosemary Anderson High School",
      "School Type": "High School",
      "Latitude": 45.5202471,
      "Longitude": -122.6741949
    },
    {
      "Date": "1/15/15",
      "Death": 0,
      "Injuries": 3,
      "Location": "Milwaukee",
      "State": "WI",
      "School Name": "Wisconson Lutheran High School",
      "School Type": "High School",
      "Latitude": 43.0349931,
      "Longitude": -87.922497
    },
    {
      "Date": "1/16/15",
      "Death": 0,
      "Injuries": 2,
      "Location": "Ocala",
      "State": "FL",
      "School Name": "Vanguard High School",
      "School Type": "High School",
      "Latitude": 29.1871986,
      "Longitude": -82.1400923
    },
    {
      "Date": "2/4/15",
      "Death": 0,
      "Injuries": 2,
      "Location": "Frederick",
      "State": "MD",
      "School Name": "Frederick High School",
      "School Type": "High School",
      "Latitude": 39.4142186,
      "Longitude": -77.4109269
    },
    {
      "Date": "2/14/15",
      "Death": 1,
      "Injuries": 0,
      "Location": "Merced",
      "State": "CA",
      "School Name": "",
      "School Type": "High School",
      "Latitude": 37.3029568,
      "Longitude": -120.4843269
    },
    {
      "Date": "2/23/15",
      "Death": 0,
      "Injuries": 3,
      "Location": "Daytona Beach",
      "State": "FL",
      "School Name": "Bethune-Cookman University",
      "School Type": "College or University",
      "Latitude": 29.2108147,
      "Longitude": -81.0228331
    },
    {
      "Date": "3/30/15",
      "Death": 0,
      "Injuries": 1,
      "Location": "University City",
      "State": "MI",
      "School Name": "",
      "School Type": "Elementary School",
      "Latitude": 38.6558849,
      "Longitude": -90.3092813
    },
    {
      "Date": "4/13/15",
      "Death": 1,
      "Injuries": 0,
      "Location": "Goldsboro",
      "State": "NC",
      "School Name": "Wayne Community College",
      "School Type": "College or University",
      "Latitude": 35.3848841,
      "Longitude": -77.9927651
    },
    {
      "Date": "4/16/15",
      "Death": 0,
      "Injuries": 1,
      "Location": "Paradis",
      "State": "LA",
      "School Name": "",
      "School Type": "Middle School",
      "Latitude": 50.2472968,
      "Longitude": 3.9541879
    },
    {
      "Date": "4/27/15",
      "Death": 0,
      "Injuries": 0,
      "Location": "Lacey",
      "State": "WA",
      "School Name": "North Thurston High School",
      "School Type": "High School",
      "Latitude": 47.0263876,
      "Longitude": -122.8072257
    },
    {
      "Date": "5/12/15",
      "Death": 0,
      "Injuries": 2,
      "Location": "Tempe",
      "State": "AZ",
      "School Name": "Corona del Sol High School",
      "School Type": "High School",
      "Latitude": 33.4144139,
      "Longitude": -111.9094474
    },
    {
      "Date": "5/24/15",
      "Death": 0,
      "Injuries": 7,
      "Location": "Flint",
      "State": "MI",
      "School Name": "Southwestern Classical Academy",
      "School Type": "High School",
      "Latitude": 43.0171773,
      "Longitude": -83.7236024
    },
    {
      "Date": "8/27/15",
      "Death": 1,
      "Injuries": 0,
      "Location": "Savannah",
      "State": "GA",
      "School Name": "Savannah State University",
      "School Type": "College or University",
      "Latitude": 32.0835407,
      "Longitude": -81.0998342
    },
    {
      "Date": "9/3/15",
      "Death": 1,
      "Injuries": 2,
      "Location": "Sacramento",
      "State": "CA",
      "School Name": "Sacramento City College",
      "School Type": "College or University",
      "Latitude": 38.5815719,
      "Longitude": -121.4943996
    },
    {
      "Date": "9/14/15",
      "Death": 2,
      "Injuries": 0,
      "Location": "Cleveland",
      "State": "MS",
      "School Name": "Delta State University",
      "School Type": "College or University",
      "Latitude": 33.7440023,
      "Longitude": -90.7248187
    },
    {
      "Date": "9/30/15",
      "Death": 0,
      "Injuries": 1,
      "Location": "Harrisburg",
      "State": "SD",
      "School Name": "Harrisburg High School",
      "School Type": "High School",
      "Latitude": 43.431366,
      "Longitude": -96.69727
    },
    {
      "Date": "10/1/15",
      "Death": 10,
      "Injuries": 9,
      "Location": "Roseburg",
      "State": "OR",
      "School Name": "Umpqua Community College",
      "School Type": "College or University",
      "Latitude": 43.216505,
      "Longitude": -123.3417381
    },
    {
      "Date": "10/9/15",
      "Death": 1,
      "Injuries": 3,
      "Location": "Flagstaff",
      "State": "AZ",
      "School Name": "Northern Arizona University - Flagstaff",
      "School Type": "College or University",
      "Latitude": 35.199458,
      "Longitude": -111.6514259
    },
    {
      "Date": "10/9/15",
      "Death": 1,
      "Injuries": 1,
      "Location": "Houston",
      "State": "TX",
      "School Name": "Texas Southern University",
      "School Type": "College or University",
      "Latitude": 29.7589382,
      "Longitude": -95.3676974
    },
    {
      "Date": "10/22/15",
      "Death": 1,
      "Injuries": 3,
      "Location": "Nashville",
      "State": "TN",
      "School Name": "Tennessee State University",
      "School Type": "College or University",
      "Latitude": 36.1622296,
      "Longitude": -86.7743531
    },
    {
      "Date": "11/1/15",
      "Death": 1,
      "Injuries": 1,
      "Location": "Winston-Salem",
      "State": "NC",
      "School Name": "Winston-Salem State University",
      "School Type": "College or University",
      "Latitude": 36.0998131,
      "Longitude": -80.2440518
    },
    {
      "Date": "11/20/15",
      "Death": 1,
      "Injuries": 0,
      "Location": "North Las Vegas",
      "State": "NV",
      "School Name": "",
      "School Type": "High School",
      "Latitude": 36.2008371,
      "Longitude": -115.1120958
    },
    {
      "Date": "1/22/16",
      "Death": 0,
      "Injuries": 1,
      "Location": "Indianapolis",
      "State": "IN",
      "School Name": "Lawrence Central High School",
      "School Type": "High School",
      "Latitude": 39.7683331,
      "Longitude": -86.1583502
    },
    {
      "Date": "1/29/16",
      "Death": 0,
      "Injuries": 0,
      "Location": "Philadelphia",
      "State": "PA",
      "School Name": "Benjamin Franklin High School",
      "School Type": "High School",
      "Latitude": 39.9524152,
      "Longitude": -75.1635755
    },
    {
      "Date": "2/9/16",
      "Death": 0,
      "Injuries": 4,
      "Location": "Muskegon Heights",
      "State": "MI",
      "School Name": "Muskegon Heights High School",
      "School Type": "High School",
      "Latitude": 43.201126,
      "Longitude": -86.238946
    },
    {
      "Date": "2/12/16",
      "Death": 2,
      "Injuries": 0,
      "Location": "Glendale",
      "State": "AZ",
      "School Name": "Independence High School",
      "School Type": "High School",
      "Latitude": 33.558997,
      "Longitude": -112.4046831
    },
    {
      "Date": "2/29/16",
      "Death": 0,
      "Injuries": 4,
      "Location": "Middletown",
      "State": "OH",
      "School Name": "Madison High School",
      "School Type": "K-12 School",
      "Latitude": 39.5150576,
      "Longitude": -84.3982763
    },
    {
      "Date": "4/23/16",
      "Death": 1,
      "Injuries": 2,
      "Location": "Antigo",
      "State": "WI",
      "School Name": "",
      "School Type": "High School",
      "Latitude": 45.140245,
      "Longitude": -89.152335
    },
    {
      "Date": "6/1/16",
      "Death": 2,
      "Injuries": 0,
      "Location": "Los Angeles",
      "State": "CA",
      "School Name": "University of California-Los Angeles",
      "School Type": "College or University",
      "Latitude": 34.054935,
      "Longitude": -118.244476
    },
    {
      "Date": "6/8/16",
      "Death": 1,
      "Injuries": 3,
      "Location": "Dorchester",
      "State": "MA",
      "School Name": "",
      "School Type": "High School",
      "Latitude": 42.2973205,
      "Longitude": -71.0744952
    },
    {
      "Date": "9/9/16",
      "Death": 1,
      "Injuries": 2,
      "Location": "Alpine",
      "State": "TX",
      "School Name": "Auburn University at Montgomery",
      "School Type": "College or University",
      "Latitude": 30.3573802,
      "Longitude": -103.6609367
    },
    {
      "Date": "9/28/16",
      "Death": 2,
      "Injuries": 2,
      "Location": "Townville",
      "State": "SC",
      "School Name": "Townville Elementary School",
      "School Type": "Elementary School",
      "Latitude": 34.5637137,
      "Longitude": -82.8984775
    },
    {
      "Date": "10/11/16",
      "Death": 0,
      "Injuries": 1,
      "Location": "Prichard",
      "State": "AL",
      "School Name": "Vigor High School",
      "School Type": "High School",
      "Latitude": 30.7387998,
      "Longitude": -88.0788889
    },
    {
      "Date": "10/13/16",
      "Death": 0,
      "Injuries": 2,
      "Location": "Columbus",
      "State": "OH",
      "School Name": "",
      "School Type": "College or University",
      "Latitude": 39.9622601,
      "Longitude": -83.0007065
    },
    {
      "Date": "10/18/16",
      "Death": 0,
      "Injuries": 4,
      "Location": "San Francisco",
      "State": "CA",
      "School Name": "",
      "School Type": "High School",
      "Latitude": 45.4423543,
      "Longitude": -73.4373087
    },
    {
      "Date": "10/25/16",
      "Death": 0,
      "Injuries": 1,
      "Location": "Sandy",
      "State": "UT",
      "School Name": "",
      "School Type": "Middle School",
      "Latitude": 40.572851,
      "Longitude": -111.8334496
    },
    {
      "Date": "12/1/16",
      "Death": 0,
      "Injuries": 0,
      "Location": "Bountiful",
      "State": "UT",
      "School Name": "Mueller Park Junior High School",
      "School Type": "Middle School",
      "Latitude": 40.8894611,
      "Longitude": -111.8804817
    },
    {
      "Date": "1/20/17",
      "Death": 0,
      "Injuries": 1,
      "Location": "West Liberty",
      "State": "OH",
      "School Name": "West Liberty-Salem High School",
      "School Type": "High School",
      "Latitude": 40.2522771,
      "Longitude": -83.7557663
    },
    {
      "Date": "1/20/17",
      "Death": 0,
      "Injuries": 1,
      "Location": "West Liberty",
      "State": "OH",
      "School Name": "University of Washington",
      "School Type": "College or University",
      "Latitude": 40.2522771,
      "Longitude": -83.7557663
    },
    {
      "Date": "3/21/17",
      "Death": 0,
      "Injuries": 1,
      "Location": "King City",
      "State": "CA",
      "School Name": "",
      "School Type": "High School",
      "Latitude": 43.929319,
      "Longitude": -79.536492
    },
    {
      "Date": "4/10/17",
      "Death": 3,
      "Injuries": 1,
      "Location": "San Bernardino",
      "State": "CA",
      "School Name": "North Park Elementary School",
      "School Type": "Elementary School",
      "Latitude": 34.1083449,
      "Longitude": -117.2897652
    },
    {
      "Date": "5/4/17",
      "Death": 2,
      "Injuries": 0,
      "Location": "Irving",
      "State": "TX",
      "School Name": "",
      "School Type": "College or University",
      "Latitude": 32.8295183,
      "Longitude": -96.9442177
    },
    {
      "Date": "9/13/17",
      "Death": 1,
      "Injuries": 3,
      "Location": "Rockford",
      "State": "WA",
      "School Name": "Freeman High School",
      "School Type": "High School",
      "Latitude": 47.4521207,
      "Longitude": -117.1307471
    },
    {
      "Date": "9/20/17",
      "Death": 0,
      "Injuries": 1,
      "Location": "Mattoon",
      "State": "IL",
      "School Name": "Mattoon High School",
      "School Type": "High School",
      "Latitude": 39.4842821,
      "Longitude": -88.3773279
    },
    {
      "Date": "11/14/17",
      "Death": 6,
      "Injuries": 18,
      "Location": "Corning",
      "State": "CA",
      "School Name": "Rancho Tehama Elementary School",
      "School Type": "Elementary School",
      "Latitude": 49.9572807,
      "Longitude": -102.9716027
    },
    {
      "Date": "12/7/17",
      "Death": 3,
      "Injuries": 0,
      "Location": "Aztec",
      "State": "NM",
      "School Name": "Aztec High School",
      "School Type": "High School",
      "Latitude": 36.8220629,
      "Longitude": -107.9928992
    },
    {
      "Date": "1/10/18",
      "Death": 0,
      "Injuries": 0,
      "Location": "Denison",
      "State": "TX",
      "School Name": "Grayson College",
      "School Type": "Community College",
      "Latitude": 33.7556593,
      "Longitude": -96.536658
    },
    {
      "Date": "1/20/18",
      "Death": 1,
      "Injuries": 0,
      "Location": "Winston-Salem",
      "State": "NC",
      "School Name": "Wake Forest University",
      "School Type": "College or University",
      "Latitude": 36.0998131,
      "Longitude": -80.2440518
    },
    {
      "Date": "1/22/18",
      "Death": 0,
      "Injuries": 1,
      "Location": "Italy",
      "State": "TX",
      "School Name": "Italy High School",
      "School Type": "High School",
      "Latitude": 32.1840381,
      "Longitude": -96.8847194
    },
    {
      "Date": "1/22/18",
      "Death": 0,
      "Injuries": 1,
      "Location": "New Orleans",
      "State": "LA",
      "School Name": "The NET Charter High School",
      "School Type": "High School",
      "Latitude": 30.03280175,
      "Longitude": -89.97500545
    },
    {
      "Date": "1/23/18",
      "Death": 2,
      "Injuries": 18,
      "Location": "Benton",
      "State": "KY",
      "School Name": "Marshall County High School",
      "School Type": "High School",
      "Latitude": 36.8572781,
      "Longitude": -88.350315
    },
    {
      "Date": "1/25/18",
      "Death": 0,
      "Injuries": 0,
      "Location": "Mobile",
      "State": "AL",
      "School Name": "Murphy High School",
      "School Type": "High School",
      "Latitude": 30.6943566,
      "Longitude": -88.0430541
    },
    {
      "Date": "1/31/18",
      "Death": 1,
      "Injuries": 0,
      "Location": "Philadelphia",
      "State": "PA",
      "School Name": "Lincoln High School",
      "School Type": "High School",
      "Latitude": 39.9524152,
      "Longitude": -75.1635755
    },
    {
      "Date": "2/1/18",
      "Death": 0,
      "Injuries": 5,
      "Location": "Los Angeles",
      "State": "CA",
      "School Name": "Salvador B. Castro Middle School",
      "School Type": "Middle School",
      "Latitude": 34.054935,
      "Longitude": -118.244476
    },
    {
      "Date": "2/5/18",
      "Death": 0,
      "Injuries": 1,
      "Location": "Oxon Hill",
      "State": "MD",
      "School Name": "Oxon Hill High School",
      "School Type": "High School",
      "Latitude": 38.8035961,
      "Longitude": -76.9896573
    },
    {
      "Date": "2/14/18",
      "Death": 17,
      "Injuries": 17,
      "Location": "Parkland",
      "State": "FL",
      "School Name": "Marjory Stoneman Douglas High School",
      "School Type": "High School",
      "Latitude": 26.3100794,
      "Longitude": -80.23727
    },
    {
      "Date": "3/2/18",
      "Death": 2,
      "Injuries": 0,
      "Location": "Mount Pleasant",
      "State": "MI",
      "School Name": "Central Michigan University",
      "School Type": "College or University",
      "Latitude": 43.597646,
      "Longitude": -84.7668495
    },
    {
      "Date": "3/7/18",
      "Death": 1,
      "Injuries": 2,
      "Location": "Birmingham",
      "State": "AL",
      "School Name": "Huffman High School",
      "School Type": "High School",
      "Latitude": 33.5206824,
      "Longitude": -86.8024326
    },
    {
      "Date": "3/9/18",
      "Death": 0,
      "Injuries": 1,
      "Location": "Lexington",
      "State": "KY",
      "School Name": "Frederick Douglass High School",
      "School Type": "High School",
      "Latitude": 38.0464066,
      "Longitude": -84.4970393
    },
    {
      "Date": "3/14/18",
      "Death": 2,
      "Injuries": 1,
      "Location": "Birmingham",
      "State": "AL",
      "School Name": "",
      "School Type": "College or University",
      "Latitude": 33.5206824,
      "Longitude": -86.8024326
    },
    {
      "Date": "3/20/18",
      "Death": 2,
      "Injuries": 1,
      "Location": "Great Mills",
      "State": "MD",
      "School Name": "Great Mills High School",
      "School Type": "High School",
      "Latitude": 38.2367924,
      "Longitude": -76.4971762
    },
    {
      "Date": "4/20/18",
      "Death": 0,
      "Injuries": 1,
      "Location": "Ocala",
      "State": "FL",
      "School Name": "Forest High School",
      "School Type": "High School",
      "Latitude": 29.1871986,
      "Longitude": -82.1400923
    },
    {
      "Date": "5/11/18",
      "Death": 0,
      "Injuries": 1,
      "Location": "Palmdale",
      "State": "CA",
      "School Name": "Highland High School",
      "School Type": "High School",
      "Latitude": 34.5793131,
      "Longitude": -118.1171108
    },
    {
      "Date": "5/16/18",
      "Death": 0,
      "Injuries": 1,
      "Location": "Dixon",
      "State": "IL",
      "School Name": "Dixon High School",
      "School Type": "High School",
      "Latitude": 41.842224,
      "Longitude": -89.4815485
    },
    {
      "Date": "5/18/18",
      "Death": 10,
      "Injuries": 14,
      "Location": "Santa Fe",
      "State": "CA",
      "School Name": "",
      "School Type": "High School",
      "Latitude": 33.7236409,
      "Longitude": -116.9639714
    },
    {
      "Date": "5/18/18",
      "Death": 1,
      "Injuries": 3,
      "Location": "Jonesboro",
      "State": "GA",
      "School Name": "",
      "School Type": "High School",
      "Latitude": 33.5215013,
      "Longitude": -84.3538128
    },
    {
      "Date": "5/25/18",
      "Death": 0,
      "Injuries": 2,
      "Location": "Noblesville",
      "State": "IN",
      "School Name": "",
      "School Type": "Middle School",
      "Latitude": 40.0455918,
      "Longitude": -86.0085955
    },
    {
      "Date": "5/5/18",
      "Death": "",
      "Injuries": "",
      "Location": "Fowlerville",
      "State": "MI",
      "School Name": "Fowlerville High School",
      "School Type": "High School",
      "Latitude": 42.6605894,
      "Longitude": -84.0730142
    },
    {
      "Date": "5/3/18",
      "Death": "",
      "Injuries": "",
      "Location": "Waynesboro",
      "State": "TN",
      "School Name": "Waynesboro Elementary School",
      "School Type": "Elementary School",
      "Latitude": 35.3198362,
      "Longitude": -87.7629269
    },
    {
      "Date": "4/22/18",
      "Death": "",
      "Injuries": "",
      "Location": "Atlanta",
      "State": "GA",
      "School Name": "Benjamin Elijah Mays High School",
      "School Type": "High School",
      "Latitude": 33.7490987,
      "Longitude": -84.3901849
    },
    {
      "Date": "4/19/18",
      "Death": "",
      "Injuries": "",
      "Location": "Jackson",
      "State": "MI",
      "School Name": "Jackson High School",
      "School Type": "High School",
      "Latitude": 32.2990384,
      "Longitude": -90.1847691
    },
    {
      "Date": "4/12/18",
      "Death": "",
      "Injuries": "",
      "Location": "Raytown",
      "State": "MO",
      "School Name": "Raytown South Middle School",
      "School Type": "Middle School",
      "Latitude": 39.0086171,
      "Longitude": -94.4635638
    },
    {
      "Date": "3/16/18",
      "Death": "",
      "Injuries": "",
      "Location": "Missoula",
      "State": "MT",
      "School Name": "Big Sky High School",
      "School Type": "High School",
      "Latitude": 46.8700801,
      "Longitude": -113.9952796
    },
    {
      "Date": "3/13/18",
      "Death": "",
      "Injuries": "",
      "Location": "Seaside",
      "State": "CA",
      "School Name": "Seaside High School",
      "School Type": "High School",
      "Latitude": 49.2718707,
      "Longitude": -123.1066675
    },
    {
      "Date": "3/13/18",
      "Death": "",
      "Injuries": "",
      "Location": "Alexandria",
      "State": "VA",
      "School Name": "George Washington Middle School",
      "School Type": "Middle School",
      "Latitude": 38.8147596,
      "Longitude": -77.09024765
    },
    {
      "Date": "3/5/18",
      "Death": "",
      "Injuries": "",
      "Location": "Cadet",
      "State": "MO",
      "School Name": "Kingston High School",
      "School Type": "High School",
      "Latitude": 37.9875505,
      "Longitude": -90.6884628
    },
    {
      "Date": "3/4/18",
      "Death": "",
      "Injuries": "",
      "Location": "San Marcos",
      "State": "TX",
      "School Name": "Texas State University",
      "School Type": "College or University",
      "Latitude": 29.8826436,
      "Longitude": -97.9405828
    },
    {
      "Date": "2/28/18",
      "Death": "",
      "Injuries": "",
      "Location": "Dalton",
      "State": "GA",
      "School Name": "Dalton High School",
      "School Type": "High School",
      "Latitude": 34.7691867,
      "Longitude": -84.9702475
    },
    {
      "Date": "2/27/18",
      "Death": "",
      "Injuries": "",
      "Location": "Norfolk",
      "State": "VA",
      "School Name": "Norfolk State University",
      "School Type": "College or University",
      "Latitude": 36.8462923,
      "Longitude": -76.2929252
    },
    {
      "Date": "2/27/18",
      "Death": "",
      "Injuries": "",
      "Location": "Itta Bena",
      "State": "MS",
      "School Name": "Mississippi Valley State University",
      "School Type": "College or University",
      "Latitude": 33.49512,
      "Longitude": -90.3198067
    },
    {
      "Date": "2/26/18",
      "Death": "",
      "Injuries": "",
      "Location": "Tacoma",
      "State": "WA",
      "School Name": "Oakland High School",
      "School Type": "High School",
      "Latitude": 47.2495798,
      "Longitude": -122.4398746
    },
    {
      "Date": "2/24/18",
      "Death": "",
      "Injuries": "",
      "Location": "Savannah",
      "State": "GA",
      "School Name": "Savannah State University",
      "School Type": "College or University",
      "Latitude": 32.0835407,
      "Longitude": -81.0998342
    },
    {
      "Date": "2/23/18",
      "Death": "",
      "Injuries": "",
      "Location": "Hammond",
      "State": "LA",
      "School Name": "Southeastern Louisiana University",
      "School Type": "College or University",
      "Latitude": 41.5833658,
      "Longitude": -87.500043
    },
    {
      "Date": "2/20/18",
      "Death": "",
      "Injuries": "",
      "Location": "Massillon",
      "State": "OH",
      "School Name": "Jackson Memorial Middle School",
      "School Type": "Middle School",
      "Latitude": 40.7967244,
      "Longitude": -81.5215093
    },
    {
      "Date": "2/15/18",
      "Death": "",
      "Injuries": "",
      "Location": "Coconut Creek",
      "State": "FL",
      "School Name": "North Broward Preparatory School",
      "School Type": "K-12 School",
      "Latitude": 26.2714628,
      "Longitude": -80.18180792
    },
    {
      "Date": "2/8/18",
      "Death": "",
      "Injuries": "",
      "Location": "New York",
      "State": "NY",
      "School Name": "The Metropolitan High School",
      "School Type": "High School",
      "Latitude": 40.7306458,
      "Longitude": -73.9866136
    },
    {
      "Date": "1/26/18",
      "Death": "",
      "Injuries": "",
      "Location": "Dearborn",
      "State": "MI",
      "School Name": "Dearborn High School",
      "School Type": "High School",
      "Latitude": 42.3222599,
      "Longitude": -83.1763145
    },
    {
      "Date": "1/15/18",
      "Death": "",
      "Injuries": "",
      "Location": "Marshall",
      "State": "TX",
      "School Name": "Wiley College",
      "School Type": "College or University",
      "Latitude": 32.5447756,
      "Longitude": -94.3661004
    },
    {
      "Date": "1/4/18",
      "Death": "",
      "Injuries": "",
      "Location": "Seattle",
      "State": "WA",
      "School Name": "New Start High School",
      "School Type": "High School",
      "Latitude": 47.6038321,
      "Longitude": -122.3300624
    },
    {
      "Date": "12/31/17",
      "Death": "",
      "Injuries": "",
      "Location": "Marysville",
      "State": "WA",
      "School Name": "Pinewood Elementary School",
      "School Type": "Elementary School",
      "Latitude": 48.0517429,
      "Longitude": -122.1768209
    },
    {
      "Date": "12/27/17",
      "Death": "",
      "Injuries": "",
      "Location": "Lancaster",
      "State": "CA",
      "School Name": "Lincoln Elementary School",
      "School Type": "Elementary School",
      "Latitude": 45.1412642,
      "Longitude": -74.4984059
    },
    {
      "Date": "12/19/17",
      "Death": "",
      "Injuries": "",
      "Location": "Beecher",
      "State": "MI",
      "School Name": "Beecher High School",
      "School Type": "High School",
      "Latitude": 43.089993,
      "Longitude": -83.70408931
    },
    {
      "Date": "12/14/17",
      "Death": "",
      "Injuries": "",
      "Location": "Dallas",
      "State": "TX",
      "School Name": "Elisha M. Pease Elementary School",
      "School Type": "Elementary School",
      "Latitude": 32.7762719,
      "Longitude": -96.7968559
    },
    {
      "Date": "12/13/17",
      "Death": "",
      "Injuries": "",
      "Location": "Monaca",
      "State": "PA",
      "School Name": "Penn State Beaver",
      "School Type": "College or University",
      "Latitude": 40.6872885,
      "Longitude": -80.2714505
    },
    {
      "Date": "12/12/17",
      "Death": "",
      "Injuries": "",
      "Location": "East Stroudsburg",
      "State": "PA",
      "School Name": "East Stroudsburg University",
      "School Type": "College or University",
      "Latitude": 41.0036462,
      "Longitude": -75.17666581
    },
    {
      "Date": "12/12/17",
      "Death": "",
      "Injuries": "",
      "Location": "Pasadena",
      "State": "TX",
      "School Name": "Sam Rayburn High School",
      "School Type": "High School",
      "Latitude": 29.6910625,
      "Longitude": -95.2091006
    },
    {
      "Date": "12/11/17",
      "Death": "",
      "Injuries": "",
      "Location": "High Point",
      "State": "NC",
      "School Name": "High Point Central High School",
      "School Type": "High School",
      "Latitude": 35.9556924,
      "Longitude": -80.0053176
    },
    {
      "Date": "11/30/17",
      "Death": "",
      "Injuries": "",
      "Location": "Virginia Beach",
      "State": "VA",
      "School Name": "Salem High School",
      "School Type": "High School",
      "Latitude": 36.8529841,
      "Longitude": -75.9774183
    },
    {
      "Date": "11/29/17",
      "Death": "",
      "Injuries": "",
      "Location": "Lima",
      "State": "OH",
      "School Name": "Bath High School",
      "School Type": "High School",
      "Latitude": 40.742551,
      "Longitude": -84.1052256
    },
    {
      "Date": "11/28/17",
      "Death": "",
      "Injuries": "",
      "Location": "San Jose",
      "State": "CA",
      "School Name": "Booksin Elementary School",
      "School Type": "Elementary School",
      "Latitude": 37.3297085,
      "Longitude": -121.9031599
    },
    {
      "Date": "11/23/17",
      "Death": "",
      "Injuries": "",
      "Location": "Denver",
      "State": "CO",
      "School Name": "Manual High School",
      "School Type": "High School",
      "Latitude": 39.7391428,
      "Longitude": -104.984696
    },
    {
      "Date": "11/17/17",
      "Death": "",
      "Injuries": "",
      "Location": "Jackson",
      "State": "TN",
      "School Name": "North Side High School",
      "School Type": "High School",
      "Latitude": 35.6144446,
      "Longitude": -88.8177418
    },
    {
      "Date": "11/11/17",
      "Death": "",
      "Injuries": "",
      "Location": "Albany",
      "State": "GA",
      "School Name": "Albany State University",
      "School Type": "College or University",
      "Latitude": 31.5782062,
      "Longitude": -84.1556809
    },
    {
      "Date": "11/10/17",
      "Death": "",
      "Injuries": "",
      "Location": "Milledgeville",
      "State": "GA",
      "School Name": "Lakeview Academy",
      "School Type": "Elementary School",
      "Latitude": 33.0801429,
      "Longitude": -83.2320991
    },
    {
      "Date": "11/10/17",
      "Death": "",
      "Injuries": "",
      "Location": "Texarkana",
      "State": "TX",
      "School Name": "Texarkana College",
      "School Type": "Community College",
      "Latitude": 33.425125,
      "Longitude": -94.0476882
    },
    {
      "Date": "11/9/17",
      "Death": "",
      "Injuries": "",
      "Location": "Fulton County",
      "State": "GA",
      "School Name": "Benjamin Banneker High School",
      "School Type": "High School",
      "Latitude": 34.0580391,
      "Longitude": -84.2961283
    },
    {
      "Date": "11/7/17",
      "Death": "",
      "Injuries": "",
      "Location": "Fort Worth",
      "State": "TX",
      "School Name": "Texas Christian University",
      "School Type": "College or University",
      "Latitude": 32.753177,
      "Longitude": -97.3327459
    },
    {
      "Date": "11/3/17",
      "Death": "",
      "Injuries": "",
      "Location": "Lansing",
      "State": "MI",
      "School Name": "Pattengill Middle School",
      "School Type": "Middle School",
      "Latitude": 42.7337712,
      "Longitude": -84.5553805
    },
    {
      "Date": "10/31/17",
      "Death": "",
      "Injuries": "",
      "Location": "Salt Lake City",
      "State": "UT",
      "School Name": "University of Utah",
      "School Type": "College or University",
      "Latitude": 40.7670126,
      "Longitude": -111.8904308
    },
    {
      "Date": "10/25/17",
      "Death": "",
      "Injuries": "",
      "Location": "Grambling",
      "State": "LA",
      "School Name": "Grambling State University",
      "School Type": "College or University",
      "Latitude": 32.5276503,
      "Longitude": -92.7140403
    },
    {
      "Date": "10/19/17",
      "Death": "",
      "Injuries": "",
      "Location": "Petersburg",
      "State": "VA",
      "School Name": "Virginia State University",
      "School Type": "College or University",
      "Latitude": 37.1924594,
      "Longitude": -77.3677408
    },
    {
      "Date": "10/14/17",
      "Death": "",
      "Injuries": "",
      "Location": "Petersburg",
      "State": "VA",
      "School Name": "Virginia State University",
      "School Type": "College or University",
      "Latitude": 37.1924594,
      "Longitude": -77.3677408
    },
    {
      "Date": "10/11/17",
      "Death": "",
      "Injuries": "",
      "Location": "Easton",
      "State": "MA",
      "School Name": "Stonehill College",
      "School Type": "College or University",
      "Latitude": 42.0245442,
      "Longitude": -71.1286594
    },
    {
      "Date": "10/9/17",
      "Death": "",
      "Injuries": "",
      "Location": "Lubbock",
      "State": "TX",
      "School Name": "Texas Tech University",
      "School Type": "College or University",
      "Latitude": 33.5778631,
      "Longitude": -101.8551665
    },
    {
      "Date": "9/30/17",
      "Death": "",
      "Injuries": "",
      "Location": "Commodore",
      "State": "PA",
      "School Name": "Purchase Line Elementary School",
      "School Type": "Elementary School",
      "Latitude": 40.7131207,
      "Longitude": -78.9433646
    },
    {
      "Date": "9/29/17",
      "Death": "",
      "Injuries": "",
      "Location": "Lee's Summit",
      "State": "MO",
      "School Name": "Lee's Summit North High School",
      "School Type": "High School",
      "Latitude": 38.9107156,
      "Longitude": -94.3821295
    },
    {
      "Date": "9/17/17",
      "Death": "",
      "Injuries": "",
      "Location": "Akron",
      "State": "OH",
      "School Name": "University of Akron",
      "School Type": "College or University",
      "Latitude": 41.083064,
      "Longitude": -81.518485
    },
    {
      "Date": "9/12/17",
      "Death": "",
      "Injuries": "",
      "Location": "St. Paul",
      "State": "MN",
      "School Name": "St. Catherine University",
      "School Type": "College or University",
      "Latitude": 44.9504037,
      "Longitude": -93.1015026
    },
    {
      "Date": "9/8/17",
      "Death": "",
      "Injuries": "",
      "Location": "Columbus",
      "State": "OH",
      "School Name": "Columbus Scioto 6-12",
      "School Type": "K-12 School",
      "Latitude": 39.9622601,
      "Longitude": -83.0007065
    },
    {
      "Date": "9/8/17",
      "Death": "",
      "Injuries": "",
      "Location": "North Little Rock",
      "State": "AR",
      "School Name": "North Little Rock High School",
      "School Type": "High School",
      "Latitude": 34.7456275,
      "Longitude": -92.15314458
    },
    {
      "Date": "9/5/17",
      "Death": "",
      "Injuries": "",
      "Location": "Nashville",
      "State": "TN",
      "School Name": "Tennessee State University",
      "School Type": "College or University",
      "Latitude": 36.1622296,
      "Longitude": -86.7743531
    },
    {
      "Date": "9/1/17",
      "Death": "",
      "Injuries": "",
      "Location": "College Station",
      "State": "TX",
      "School Name": "Texas A&M University",
      "School Type": "College or University",
      "Latitude": 30.6253463,
      "Longitude": -96.3271538
    },
    {
      "Date": "8/17/17",
      "Death": "",
      "Injuries": "",
      "Location": "Lithia Springs",
      "State": "GA",
      "School Name": "Lithia Springs High School",
      "School Type": "High School",
      "Latitude": 33.7939953,
      "Longitude": -84.6604899
    },
    {
      "Date": "7/23/17",
      "Death": "",
      "Injuries": "",
      "Location": "Fayetteville",
      "State": "AR",
      "School Name": "University of Arkansas",
      "School Type": "College or University",
      "Latitude": 36.0625843,
      "Longitude": -94.1574328
    },
    {
      "Date": "7/21/17",
      "Death": "",
      "Injuries": "",
      "Location": "Spanish Fork",
      "State": "UT",
      "School Name": "Spanish Fork High School",
      "School Type": "High School",
      "Latitude": 40.114955,
      "Longitude": -111.654923
    },
    {
      "Date": "7/19/17",
      "Death": "",
      "Injuries": "",
      "Location": "Milwaukee",
      "State": "WI",
      "School Name": "Hickman Academy Prepatory School",
      "School Type": "K-12 School",
      "Latitude": 43.0349931,
      "Longitude": -87.922497
    },
    {
      "Date": "7/13/17",
      "Death": "",
      "Injuries": "",
      "Location": "Las Vegas",
      "State": "NV",
      "School Name": "University of Nevada",
      "School Type": "College or University",
      "Latitude": 36.1662859,
      "Longitude": -115.149225
    },
    {
      "Date": "6/22/17",
      "Death": "",
      "Injuries": "",
      "Location": "Florence",
      "State": "SC",
      "School Name": "Wilson High School",
      "School Type": "High School",
      "Latitude": 34.1954,
      "Longitude": -79.7626
    },
    {
      "Date": "6/16/17",
      "Death": "",
      "Injuries": "",
      "Location": "Chicago",
      "State": "IL",
      "School Name": "Warren Elementary School",
      "School Type": "Elementary School",
      "Latitude": 41.8755546,
      "Longitude": -87.6244212
    },
    {
      "Date": "6/5/17",
      "Death": "",
      "Injuries": "",
      "Location": "Fort Wayne",
      "State": "IN",
      "School Name": "Ravenscroft Beauty College",
      "School Type": "Community College",
      "Latitude": 41.0799898,
      "Longitude": -85.1386015
    },
    {
      "Date": "5/24/17",
      "Death": "",
      "Injuries": "",
      "Location": "Greensboro",
      "State": "AL",
      "School Name": "Greensboro High School",
      "School Type": "High School",
      "Latitude": 32.7045753,
      "Longitude": -87.5958396
    },
    {
      "Date": "5/23/17",
      "Death": "",
      "Injuries": "",
      "Location": "Kirbyville",
      "State": "TX",
      "School Name": "Kirbyville High School",
      "School Type": "High School",
      "Latitude": 30.6604815,
      "Longitude": -93.8926809
    },
    {
      "Date": "5/15/17",
      "Death": "",
      "Injuries": "",
      "Location": "Moss Bluff",
      "State": "LA",
      "School Name": "Moss Bluff Elementary School",
      "School Type": "Elementary School",
      "Latitude": 30.3027042,
      "Longitude": -93.1907097
    },
    {
      "Date": "5/2/17",
      "Death": "",
      "Injuries": "",
      "Location": "Irving",
      "State": "TX",
      "School Name": "North Lake College",
      "School Type": "Community College",
      "Latitude": 32.8295183,
      "Longitude": -96.9442177
    },
    {
      "Date": "4/25/17",
      "Death": "",
      "Injuries": "",
      "Location": "Orem",
      "State": "UT",
      "School Name": "Utah Valley University",
      "School Type": "College or University",
      "Latitude": 40.2971825,
      "Longitude": -111.694943
    },
    {
      "Date": "4/15/17",
      "Death": "",
      "Injuries": "",
      "Location": "Tulsa",
      "State": "OK",
      "School Name": "Booker T. Washington High School",
      "School Type": "High School",
      "Latitude": 36.1556805,
      "Longitude": -95.9929113
    },
    {
      "Date": "4/7/17",
      "Death": "",
      "Injuries": "",
      "Location": "St. Paul",
      "State": "MN",
      "School Name": "University of St. Thomas",
      "School Type": "College or University",
      "Latitude": 44.9504037,
      "Longitude": -93.1015026
    },
    {
      "Date": "3/31/17",
      "Death": "",
      "Injuries": "",
      "Location": "Pensacola",
      "State": "FL",
      "School Name": "University of West Florida",
      "School Type": "College or University",
      "Latitude": 30.421309,
      "Longitude": -87.2169149
    },
    {
      "Date": "3/15/17",
      "Death": "",
      "Injuries": "",
      "Location": "Gaffney",
      "State": "SC",
      "School Name": "Limestone College",
      "School Type": "College or University",
      "Latitude": 35.0717945,
      "Longitude": -81.6498195
    },
    {
      "Date": "3/13/17",
      "Death": "",
      "Injuries": "",
      "Location": "Wilberforce",
      "State": "OH",
      "School Name": "Central State University",
      "School Type": "College or University",
      "Latitude": 39.7173,
      "Longitude": -83.88547926
    },
    {
      "Date": "2/6/17",
      "Death": "",
      "Injuries": "",
      "Location": "Scotlandville",
      "State": "LA",
      "School Name": "Scotlandville High School",
      "School Type": "High School",
      "Latitude": 30.5204668,
      "Longitude": -91.1787186
    },
    {
      "Date": "1/27/17",
      "Death": "",
      "Injuries": "",
      "Location": "Aiken",
      "State": "SC",
      "School Name": "South Aiken High School",
      "School Type": "High School",
      "Latitude": 33.5598586,
      "Longitude": -81.721952
    },
    {
      "Date": "1/22/17",
      "Death": "",
      "Injuries": "",
      "Location": "Manhattan",
      "State": "KS",
      "School Name": "Kansas State University",
      "School Type": "College or University",
      "Latitude": 39.1836082,
      "Longitude": -96.5716694
    },
    {
      "Date": "1/17/17",
      "Death": "",
      "Injuries": "",
      "Location": "Eastpoint",
      "State": "FL",
      "School Name": "Franklin County Elementary School",
      "School Type": "Elementary School",
      "Latitude": 29.736601,
      "Longitude": -84.8785185
    },
    {
      "Date": "1/10/17",
      "Death": "",
      "Injuries": "",
      "Location": "Alexander City",
      "State": "AL",
      "School Name": "Alexander City Middle School",
      "School Type": "Middle School",
      "Latitude": 32.944012,
      "Longitude": -85.9538532
    },
    {
      "Date": "1/5/17",
      "Death": "",
      "Injuries": "",
      "Location": "Lebanon",
      "State": "OH",
      "School Name": "Warren County Career Center",
      "School Type": "Community College",
      "Latitude": 39.4353373,
      "Longitude": -84.2029922
    },
    {
      "Date": "12/29/16",
      "Death": "",
      "Injuries": "",
      "Location": "Salt Lake City",
      "State": "UT",
      "School Name": "University of Utah",
      "School Type": "College or University",
      "Latitude": 40.7670126,
      "Longitude": -111.8904308
    },
    {
      "Date": "12/9/16",
      "Death": "",
      "Injuries": "",
      "Location": "St. Louis",
      "State": "MO",
      "School Name": "Bayless High School",
      "School Type": "High School",
      "Latitude": 38.6272733,
      "Longitude": -90.1978889
    },
    {
      "Date": "11/17/16",
      "Death": "",
      "Injuries": "",
      "Location": "St. Paul",
      "State": "MN",
      "School Name": "Crossroads Elementary School",
      "School Type": "Elementary School",
      "Latitude": 44.9504037,
      "Longitude": -93.1015026
    },
    {
      "Date": "11/11/16",
      "Death": "",
      "Injuries": "",
      "Location": "Auburn",
      "State": "MI",
      "School Name": "Bay City Western High School",
      "School Type": "High School",
      "Latitude": 43.603358,
      "Longitude": -84.069705
    },
    {
      "Date": "11/3/16",
      "Death": "",
      "Injuries": "",
      "Location": "Berthoud",
      "State": "CO",
      "School Name": "Berthoud High School",
      "School Type": "High School",
      "Latitude": 40.3083174,
      "Longitude": -105.0810924
    },
    {
      "Date": "11/2/16",
      "Death": "",
      "Injuries": "",
      "Location": "Grand Junction",
      "State": "CO",
      "School Name": "Grand Junction High School",
      "School Type": "High School",
      "Latitude": 39.063956,
      "Longitude": -108.5507317
    },
    {
      "Date": "10/23/16",
      "Death": "",
      "Injuries": "",
      "Location": "Huntsville",
      "State": "AL",
      "School Name": "Alabama A&M University",
      "School Type": "College or University",
      "Latitude": 34.729847,
      "Longitude": -86.5859011
    },
    {
      "Date": "10/23/16",
      "Death": "",
      "Injuries": "",
      "Location": "Caledonia",
      "State": "MI",
      "School Name": "Davenport University",
      "School Type": "College or University",
      "Latitude": 42.7891193,
      "Longitude": -85.5163391
    },
    {
      "Date": "10/6/16",
      "Death": "",
      "Injuries": "",
      "Location": "Fort Worth",
      "State": "TX",
      "School Name": "Dunbar High School",
      "School Type": "High School",
      "Latitude": 32.753177,
      "Longitude": -97.3327459
    },
    {
      "Date": "9/15/16",
      "Death": "",
      "Injuries": "",
      "Location": "Stephenville",
      "State": "TX",
      "School Name": "Tarleton State University",
      "School Type": "College or University",
      "Latitude": 32.2207307,
      "Longitude": -98.2026165
    },
    {
      "Date": "9/8/16",
      "Death": "",
      "Injuries": "",
      "Location": "Alpine",
      "State": "TX",
      "School Name": "Alpine High School",
      "School Type": "High School",
      "Latitude": 30.3573802,
      "Longitude": -103.6609367
    },
    {
      "Date": "9/2/16",
      "Death": "",
      "Injuries": "",
      "Location": "Tulsa",
      "State": "OK",
      "School Name": "McLain High School",
      "School Type": "High School",
      "Latitude": 36.1556805,
      "Longitude": -95.9929113
    },
    {
      "Date": "8/25/16",
      "Death": "",
      "Injuries": "",
      "Location": "Booneville",
      "State": "MS",
      "School Name": "Northeast Mississippi Community College",
      "School Type": "Community College",
      "Latitude": 34.6580327,
      "Longitude": -88.5666451
    },
    {
      "Date": "7/25/16",
      "Death": "",
      "Injuries": "",
      "Location": "Ava",
      "State": "MO",
      "School Name": "Ava High School",
      "School Type": "High School",
      "Latitude": 36.951999,
      "Longitude": -92.6604457
    },
    {
      "Date": "7/7/16",
      "Death": "",
      "Injuries": "",
      "Location": "Dallas",
      "State": "TX",
      "School Name": "El Centro College",
      "School Type": "College or University",
      "Latitude": 32.7762719,
      "Longitude": -96.7968559
    },
    {
      "Date": "6/10/16",
      "Death": "",
      "Injuries": "",
      "Location": "Vallejo",
      "State": "CA",
      "School Name": "Solano Community College",
      "School Type": "Community College",
      "Latitude": 38.1040864,
      "Longitude": -122.2566367
    },
    {
      "Date": "6/7/16",
      "Death": "",
      "Injuries": "",
      "Location": "Columbia",
      "State": "MO",
      "School Name": "University of Missouri",
      "School Type": "College or University",
      "Latitude": 38.951883,
      "Longitude": -92.3337366
    },
    {
      "Date": "5/15/16",
      "Death": "",
      "Injuries": "",
      "Location": "Augusta",
      "State": "KS",
      "School Name": "Augusta High School",
      "School Type": "High School",
      "Latitude": 37.6913769,
      "Longitude": -96.9707179
    },
    {
      "Date": "5/13/16",
      "Death": "",
      "Injuries": "",
      "Location": "Greenville",
      "State": "SC",
      "School Name": "Southside High School",
      "School Type": "High School",
      "Latitude": 34.851354,
      "Longitude": -82.3984882
    },
    {
      "Date": "5/11/16",
      "Death": "",
      "Injuries": "",
      "Location": "Jamaica",
      "State": "NY",
      "School Name": "St. John's University",
      "School Type": "College or University",
      "Latitude": 40.6914852,
      "Longitude": -73.8056771
    },
    {
      "Date": "5/6/16",
      "Death": "",
      "Injuries": "",
      "Location": "Panama City",
      "State": "FL",
      "School Name": "Oscar Patterson Elementary School",
      "School Type": "Elementary School",
      "Latitude": 30.1600827,
      "Longitude": -85.6545729
    },
    {
      "Date": "5/6/16",
      "Death": "",
      "Injuries": "",
      "Location": "Columbia",
      "State": "MO",
      "School Name": "University of Missouri",
      "School Type": "College or University",
      "Latitude": 38.951883,
      "Longitude": -92.3337366
    },
    {
      "Date": "5/6/16",
      "Death": "",
      "Injuries": "",
      "Location": "Twin Falls",
      "State": "ID",
      "School Name": "Robert Stuart Middle School",
      "School Type": "Middle School",
      "Latitude": 42.5704219,
      "Longitude": -114.4603171
    },
    {
      "Date": "5/5/16",
      "Death": "",
      "Injuries": "",
      "Location": "Beltsville",
      "State": "MD",
      "School Name": "High Point High School",
      "School Type": "High School",
      "Latitude": 39.0299081,
      "Longitude": -76.9149547
    },
    {
      "Date": "5/2/16",
      "Death": "",
      "Injuries": "",
      "Location": "Dallas",
      "State": "TX",
      "School Name": "Kimball High School",
      "School Type": "High School",
      "Latitude": 32.7762719,
      "Longitude": -96.7968559
    },
    {
      "Date": "4/29/16",
      "Death": "",
      "Injuries": "",
      "Location": "Charleston",
      "State": "WV",
      "School Name": "University of Charleston",
      "School Type": "College or University",
      "Latitude": 38.3505995,
      "Longitude": -81.6332812
    },
    {
      "Date": "4/16/16",
      "Death": "",
      "Injuries": "",
      "Location": "Tuskegee",
      "State": "AL",
      "School Name": "Tuskegee University",
      "School Type": "College or University",
      "Latitude": 32.4240286,
      "Longitude": -85.6916195
    },
    {
      "Date": "4/2/16",
      "Death": "",
      "Injuries": "",
      "Location": "Manhattan",
      "State": "KS",
      "School Name": "Kansas State University",
      "School Type": "College or University",
      "Latitude": 39.1836082,
      "Longitude": -96.5716694
    },
    {
      "Date": "3/27/16",
      "Death": "",
      "Injuries": "",
      "Location": "Tacoma",
      "State": "WA",
      "School Name": "University of Puget Sound",
      "School Type": "College or University",
      "Latitude": 47.2495798,
      "Longitude": -122.4398746
    },
    {
      "Date": "3/23/16",
      "Death": "",
      "Injuries": "",
      "Location": "Charlotte",
      "State": "NC",
      "School Name": "Johnson C. Smith University",
      "School Type": "College or University",
      "Latitude": 35.2270869,
      "Longitude": -80.8431268
    },
    {
      "Date": "3/21/16",
      "Death": "",
      "Injuries": "",
      "Location": "Atlanta",
      "State": "GA",
      "School Name": "Georgia State University",
      "School Type": "College or University",
      "Latitude": 33.7490987,
      "Longitude": -84.3901849
    },
    {
      "Date": "3/15/16",
      "Death": "",
      "Injuries": "",
      "Location": "Birmingham",
      "State": "AL",
      "School Name": "Huffman High School",
      "School Type": "High School",
      "Latitude": 33.5206824,
      "Longitude": -86.8024326
    },
    {
      "Date": "2/26/16",
      "Death": "",
      "Injuries": "",
      "Location": "Palestine",
      "State": "TX",
      "School Name": "Palestine High School",
      "School Type": "High School",
      "Latitude": 31.7621153,
      "Longitude": -95.6307891
    },
    {
      "Date": "2/17/16",
      "Death": "",
      "Injuries": "",
      "Location": "Homosassa",
      "State": "FL",
      "School Name": "Rock Crusher Elementary School",
      "School Type": "Elementary School",
      "Latitude": 28.7813722,
      "Longitude": -82.6151001
    },
    {
      "Date": "1/20/16",
      "Death": "",
      "Injuries": "",
      "Location": "Indianapolis",
      "State": "IN",
      "School Name": "Northwest Community High School",
      "School Type": "High School",
      "Latitude": 39.7683331,
      "Longitude": -86.1583502
    },
    {
      "Date": "1/13/16",
      "Death": "",
      "Injuries": "",
      "Location": "Camden",
      "State": "AR",
      "School Name": "Harmony Grove High School",
      "School Type": "High School",
      "Latitude": 33.5845582,
      "Longitude": -92.8343294
    },
    {
      "Date": "1/12/16",
      "Death": "",
      "Injuries": "",
      "Location": "Dover",
      "State": "DE",
      "School Name": "Central Middle School",
      "School Type": "Middle School",
      "Latitude": 39.158168,
      "Longitude": -75.5243682
    },
    {
      "Date": "12/29/15",
      "Death": "",
      "Injuries": "",
      "Location": "Greeley",
      "State": "CO",
      "School Name": "",
      "School Type": "",
      "Latitude": 40.4233142,
      "Longitude": -104.7091322
    },
    {
      "Date": "12/18/15",
      "Death": "",
      "Injuries": "",
      "Location": "Jackson",
      "State": "TN",
      "School Name": "Lane College",
      "School Type": "College or University",
      "Latitude": 35.6144446,
      "Longitude": -88.8177418
    },
    {
      "Date": "11/29/15",
      "Death": "",
      "Injuries": "",
      "Location": "Columbus",
      "State": "OH",
      "School Name": "Ohio State University",
      "School Type": "College or University",
      "Latitude": 39.9622601,
      "Longitude": -83.0007065
    },
    {
      "Date": "11/11/15",
      "Death": "",
      "Injuries": "",
      "Location": "Sulphur Rock",
      "State": "AR",
      "School Name": "Sulphur Rock Magnet School",
      "School Type": "Middle School",
      "Latitude": 35.751188,
      "Longitude": -91.5006905
    },
    {
      "Date": "11/10/15",
      "Death": "",
      "Injuries": "",
      "Location": "Lecanto",
      "State": "FL",
      "School Name": "Lecanto High School",
      "School Type": "High School",
      "Latitude": 28.8516486,
      "Longitude": -82.4875982
    },
    {
      "Date": "11/5/15",
      "Death": "",
      "Injuries": "",
      "Location": "Moultrie",
      "State": "GA",
      "School Name": "Vereen School",
      "School Type": "Middle School",
      "Latitude": 31.1811523,
      "Longitude": -83.7878809
    },
    {
      "Date": "10/25/15",
      "Death": "",
      "Injuries": "",
      "Location": "Durham",
      "State": "NC",
      "School Name": "North Carolina Central University",
      "School Type": "College or University",
      "Latitude": 35.9966551,
      "Longitude": -78.9018115
    },
    {
      "Date": "10/24/15",
      "Death": "",
      "Injuries": "",
      "Location": "San Antonio",
      "State": "TX",
      "School Name": "Ed White Middle School",
      "School Type": "Middle School",
      "Latitude": 29.4246002,
      "Longitude": -98.4951405
    },
    {
      "Date": "10/15/15",
      "Death": "",
      "Injuries": "",
      "Location": "Langston",
      "State": "OK",
      "School Name": "Langston University",
      "School Type": "College or University",
      "Latitude": 35.9450505,
      "Longitude": -97.2553142
    },
    {
      "Date": "10/15/15",
      "Death": "",
      "Injuries": "",
      "Location": "San Antonio",
      "State": "TX",
      "School Name": "Wagner High School",
      "School Type": "High School",
      "Latitude": 29.4246002,
      "Longitude": -98.4951405
    },
    {
      "Date": "10/11/15",
      "Death": "",
      "Injuries": "",
      "Location": "Tampa",
      "State": "FL",
      "School Name": "University of South Florida",
      "School Type": "College or University",
      "Latitude": 27.9477595,
      "Longitude": -82.458444
    },
    {
      "Date": "10/6/15",
      "Death": "",
      "Injuries": "",
      "Location": "Houston",
      "State": "TX",
      "School Name": "Texas Southern University",
      "School Type": "College or University",
      "Latitude": 29.7589382,
      "Longitude": -95.3676974
    },
    {
      "Date": "10/2/15",
      "Death": "",
      "Injuries": "",
      "Location": "University City",
      "State": "MO",
      "School Name": "University City High School",
      "School Type": "High School",
      "Latitude": 38.6558849,
      "Longitude": -90.3092813
    },
    {
      "Date": "9/28/15",
      "Death": "",
      "Injuries": "",
      "Location": "Butte",
      "State": "MT",
      "School Name": "Montana Tech of the University of Montana",
      "School Type": "College or University",
      "Latitude": 46.0131505,
      "Longitude": -112.5365089
    },
    {
      "Date": "9/22/15",
      "Death": "",
      "Injuries": "",
      "Location": "Statesville",
      "State": "NC",
      "School Name": "Central Elementary School",
      "School Type": "Elementary School",
      "Latitude": 35.7826363,
      "Longitude": -80.8872959
    },
    {
      "Date": "9/11/15",
      "Death": "",
      "Injuries": "",
      "Location": "Lafayette",
      "State": "LA",
      "School Name": "Northside High School",
      "School Type": "High School",
      "Latitude": 30.2240897,
      "Longitude": -92.0198427
    },
    {
      "Date": "8/26/15",
      "Death": "",
      "Injuries": "",
      "Location": "Houston",
      "State": "TX",
      "School Name": "Texas Southern University",
      "School Type": "College or University",
      "Latitude": 29.7589382,
      "Longitude": -95.3676974
    },
    {
      "Date": "8/25/15",
      "Death": "",
      "Injuries": "",
      "Location": "Augusta",
      "State": "GA",
      "School Name": "Hornsby Elementary School",
      "School Type": "Elementary School",
      "Latitude": 33.4709714,
      "Longitude": -81.9748429
    },
    {
      "Date": "8/23/15",
      "Death": "",
      "Injuries": "",
      "Location": "Richmond",
      "State": "TX",
      "School Name": "William Velasquez Elementary",
      "School Type": "Elementary School",
      "Latitude": 29.5821811,
      "Longitude": -95.7607832
    },
    {
      "Date": "8/8/15",
      "Death": "",
      "Injuries": "",
      "Location": "Paradise",
      "State": "TX",
      "School Name": "Paradise High School",
      "School Type": "High School",
      "Latitude": 33.150118,
      "Longitude": -97.6872521
    },
    {
      "Date": "8/8/15",
      "Death": "",
      "Injuries": "",
      "Location": "Wichita",
      "State": "KS",
      "School Name": "Wichita State",
      "School Type": "College or University",
      "Latitude": 37.6922361,
      "Longitude": -97.3375448
    },
    {
      "Date": "7/27/15",
      "Death": "",
      "Injuries": "",
      "Location": "Gainesville",
      "State": "FL",
      "School Name": "University of Florida",
      "School Type": "College or University",
      "Latitude": 29.6519396,
      "Longitude": -82.3249961
    },
    {
      "Date": "7/24/15",
      "Death": "",
      "Injuries": "",
      "Location": "Converse",
      "State": "TX",
      "School Name": "Elolf Elementary School",
      "School Type": "Elementary School",
      "Latitude": 29.5180081,
      "Longitude": -98.3161241
    },
    {
      "Date": "7/5/15",
      "Death": "",
      "Injuries": "",
      "Location": "Dallas",
      "State": "TX",
      "School Name": "Coppell Middle School East",
      "School Type": "Middle School",
      "Latitude": 32.7762719,
      "Longitude": -96.7968559
    },
    {
      "Date": "6/23/15",
      "Death": "",
      "Injuries": "",
      "Location": "Fort Calhoun",
      "State": "NE",
      "School Name": "Fort Calhoun Elementary School",
      "School Type": "Elementary School",
      "Latitude": 41.4558282,
      "Longitude": -96.0264024
    },
    {
      "Date": "6/4/15",
      "Death": "",
      "Injuries": "",
      "Location": "Franklin",
      "State": "NC",
      "School Name": "South Macon Elementary School",
      "School Type": "Elementary School",
      "Latitude": 36.1028596,
      "Longitude": -78.2787229
    },
    {
      "Date": "5/27/15",
      "Death": "",
      "Injuries": "",
      "Location": "Everglades City",
      "State": "FL",
      "School Name": "Everglades City School",
      "School Type": "Preschool",
      "Latitude": 25.8601002,
      "Longitude": -81.380357
    },
    {
      "Date": "5/20/15",
      "Death": "",
      "Injuries": "",
      "Location": "Robinson",
      "State": "TX",
      "School Name": "Robinson High School",
      "School Type": "High School",
      "Latitude": 31.4676687,
      "Longitude": -97.1147226
    },
    {
      "Date": "5/5/15",
      "Death": "",
      "Injuries": "",
      "Location": "Conyers",
      "State": "GA",
      "School Name": "Conyers Middle School",
      "School Type": "Middle School",
      "Latitude": 33.6676103,
      "Longitude": -84.0176904
    },
    {
      "Date": "5/4/15",
      "Death": "",
      "Injuries": "",
      "Location": "Orem",
      "State": "UT",
      "School Name": "Utah Valley Univeristy",
      "School Type": "College or University",
      "Latitude": 40.2971825,
      "Longitude": -111.694943
    },
    {
      "Date": "5/4/15",
      "Death": "",
      "Injuries": "",
      "Location": "Cleveland",
      "State": "OH",
      "School Name": "Willow Elementary School",
      "School Type": "Elementary School",
      "Latitude": 41.5051613,
      "Longitude": -81.6934446
    },
    {
      "Date": "4/22/15",
      "Death": "",
      "Injuries": "",
      "Location": "Las Vegas",
      "State": "NV",
      "School Name": "Ruthe Deskin Elementary School",
      "School Type": "Elementary School",
      "Latitude": 36.1662859,
      "Longitude": -115.149225
    },
    {
      "Date": "4/19/15",
      "Death": "",
      "Injuries": "",
      "Location": "Charlotte",
      "State": "NC",
      "School Name": "Johnson C. Smith University",
      "School Type": "College or University",
      "Latitude": 35.2270869,
      "Longitude": -80.8431268
    },
    {
      "Date": "4/18/15",
      "Death": "",
      "Injuries": "",
      "Location": "Dover",
      "State": "DE",
      "School Name": "Delaware State University",
      "School Type": "College or University",
      "Latitude": 39.158168,
      "Longitude": -75.5243682
    },
    {
      "Date": "4/17/15",
      "Death": "",
      "Injuries": "",
      "Location": "Seguin",
      "State": "TX",
      "School Name": "Seguin High School",
      "School Type": "High School",
      "Latitude": 29.5688411,
      "Longitude": -97.9647269
    },
    {
      "Date": "4/4/15",
      "Death": "",
      "Injuries": "",
      "Location": "Everett",
      "State": "WA",
      "School Name": "Everett Community College",
      "School Type": "College or University",
      "Latitude": 47.9673056,
      "Longitude": -122.2013998
    },
    {
      "Date": "4/2/15",
      "Death": "",
      "Injuries": "",
      "Location": "Monaca",
      "State": "PA",
      "School Name": "Community College of Beaver County",
      "School Type": "College or University",
      "Latitude": 40.6872885,
      "Longitude": -80.2714505
    },
    {
      "Date": "4/2/15",
      "Death": "",
      "Injuries": "",
      "Location": "Jackson",
      "State": "TN",
      "School Name": "Lane College",
      "School Type": "College or University",
      "Latitude": 35.6144446,
      "Longitude": -88.8177418
    },
    {
      "Date": "2/15/15",
      "Death": "",
      "Injuries": "",
      "Location": "Little Rock",
      "State": "AR",
      "School Name": "Lawson Elementary School",
      "School Type": "Elementary School",
      "Latitude": 34.7464809,
      "Longitude": -92.2895948
    },
    {
      "Date": "2/15/15",
      "Death": "",
      "Injuries": "",
      "Location": "Athens",
      "State": "GA",
      "School Name": "University of Georgia",
      "School Type": "College or University",
      "Latitude": 33.9550905,
      "Longitude": -83.3881868
    },
    {
      "Date": "2/15/15",
      "Death": "",
      "Injuries": "",
      "Location": "Merced",
      "State": "CA",
      "School Name": "Tenaya Middle School",
      "School Type": "Middle School",
      "Latitude": 37.3029568,
      "Longitude": -120.4843269
    },
    {
      "Date": "2/5/15",
      "Death": "",
      "Injuries": "",
      "Location": "Columbia",
      "State": "SC",
      "School Name": "University of South Carolina",
      "School Type": "College or University",
      "Latitude": 34.0007493,
      "Longitude": -81.0343313
    },
    {
      "Date": "2/2/15",
      "Death": "",
      "Injuries": "",
      "Location": "Mankato",
      "State": "MN",
      "School Name": "Minnesota State University",
      "School Type": "College or University",
      "Latitude": 44.1634663,
      "Longitude": -93.9993505
    },
    {
      "Date": "1/26/15",
      "Death": "",
      "Injuries": "",
      "Location": "Roseville",
      "State": "MN",
      "School Name": "Hand and Hand Montessori",
      "School Type": "Preschool",
      "Latitude": 45.0060767,
      "Longitude": -93.1566107
    },
    {
      "Date": "1/23/15",
      "Death": "",
      "Injuries": "",
      "Location": "Hardeeville",
      "State": "SC",
      "School Name": "Royal Live Oaks Academy",
      "School Type": "K-12 School",
      "Latitude": 32.2802665,
      "Longitude": -81.0726108
    },
    {
      "Date": "12/17/14",
      "Death": "",
      "Injuries": "",
      "Location": "Waterville",
      "State": "ME",
      "School Name": "Benton Elementary School",
      "School Type": "Elementary School",
      "Latitude": 44.5520105,
      "Longitude": -69.6317121
    },
    {
      "Date": "12/17/14",
      "Death": "",
      "Injuries": "",
      "Location": "Pittsburgh",
      "State": "PA",
      "School Name": "Sunnyside Elementary School",
      "School Type": "Elementary School",
      "Latitude": 40.4416941,
      "Longitude": -79.9900861
    },
    {
      "Date": "11/23/14",
      "Death": "",
      "Injuries": "",
      "Location": "Annapolis",
      "State": "MD",
      "School Name": "St Johns College",
      "School Type": "College or University",
      "Latitude": 38.9786401,
      "Longitude": -76.492786
    },
    {
      "Date": "10/21/14",
      "Death": "",
      "Injuries": "",
      "Location": "Memphis",
      "State": "TN",
      "School Name": "A. Maceo Walker Middle School",
      "School Type": "Middle School",
      "Latitude": 35.1490215,
      "Longitude": -90.0516285
    },
    {
      "Date": "10/18/14",
      "Death": "",
      "Injuries": "",
      "Location": "Langston",
      "State": "OK",
      "School Name": "Langston University",
      "School Type": "College or University",
      "Latitude": 35.9450505,
      "Longitude": -97.2553142
    },
    {
      "Date": "10/13/14",
      "Death": "",
      "Injuries": "",
      "Location": "Nashville",
      "State": "TN",
      "School Name": "Tennessee State University",
      "School Type": "College or University",
      "Latitude": 36.1622296,
      "Longitude": -86.7743531
    },
    {
      "Date": "10/8/14",
      "Death": "",
      "Injuries": "",
      "Location": "Elizabeth City",
      "State": "NC",
      "School Name": "Elizabeth City State University",
      "School Type": "College or University",
      "Latitude": 36.2956836,
      "Longitude": -76.2247697
    },
    {
      "Date": "9/10/14",
      "Death": "",
      "Injuries": "",
      "Location": "Lake Mary",
      "State": "FL",
      "School Name": "Greenwood Lakes Middle School",
      "School Type": "Elementary School",
      "Latitude": 28.756618,
      "Longitude": -81.33888382
    },
    {
      "Date": "9/5/14",
      "Death": "",
      "Injuries": "",
      "Location": "Savannah",
      "State": "GA",
      "School Name": "Savannah State University",
      "School Type": "College or University",
      "Latitude": 32.0835407,
      "Longitude": -81.0998342
    },
    {
      "Date": "9/2/14",
      "Death": "",
      "Injuries": "",
      "Location": "Pocatello",
      "State": "ID",
      "School Name": "Idaho State University",
      "School Type": "College or University",
      "Latitude": 42.8688613,
      "Longitude": -112.4401098
    },
    {
      "Date": "8/14/14",
      "Death": "",
      "Injuries": "",
      "Location": "Newport News",
      "State": "VA",
      "School Name": "Saunders Elementary",
      "School Type": "Elementary School",
      "Latitude": 36.9786449,
      "Longitude": -76.4321089
    },
    {
      "Date": "8/13/14",
      "Death": "",
      "Injuries": "",
      "Location": "Fredrick",
      "State": "MD",
      "School Name": "Heather Ridge High school",
      "School Type": "High School",
      "Latitude": 39.343,
      "Longitude": -77.51
    },
    {
      "Date": "6/27/14",
      "Death": "",
      "Injuries": "",
      "Location": "Miami",
      "State": "FL",
      "School Name": "University of Miami",
      "School Type": "College or University",
      "Latitude": 25.7742658,
      "Longitude": -80.1936589
    },
    {
      "Date": "6/23/14",
      "Death": "",
      "Injuries": "",
      "Location": "Benton",
      "State": "MO",
      "School Name": "Kelly High School",
      "School Type": "High School",
      "Latitude": 38.2930723,
      "Longitude": -93.3036786
    },
    {
      "Date": "5/21/14",
      "Death": "",
      "Injuries": "",
      "Location": "Milwaukee",
      "State": "WI",
      "School Name": "Clarke Street School Playground",
      "School Type": "Elementary School",
      "Latitude": 43.0349931,
      "Longitude": -87.922497
    },
    {
      "Date": "5/3/14",
      "Death": "",
      "Injuries": "",
      "Location": "Everett",
      "State": "WA",
      "School Name": "Horizon Elementary",
      "School Type": "Elementary School",
      "Latitude": 47.9673056,
      "Longitude": -122.2013998
    },
    {
      "Date": "5/2/14",
      "Death": "",
      "Injuries": "",
      "Location": "Milwaukee",
      "State": "WI",
      "School Name": "Marquette University",
      "School Type": "College or University",
      "Latitude": 43.0349931,
      "Longitude": -87.922497
    },
    {
      "Date": "4/21/14",
      "Death": "",
      "Injuries": "",
      "Location": "Griffith",
      "State": "IN",
      "School Name": "St. Mary Catholic School",
      "School Type": "Elementary School",
      "Latitude": 41.534507,
      "Longitude": -87.4255305
    },
    {
      "Date": "4/21/14",
      "Death": "",
      "Injuries": "",
      "Location": "Provo",
      "State": "UT",
      "School Name": "Provo High School",
      "School Type": "High School",
      "Latitude": 40.2338438,
      "Longitude": -111.6585337
    },
    {
      "Date": "4/16/14",
      "Death": "",
      "Injuries": "",
      "Location": "Council Bluffs",
      "State": "IA",
      "School Name": "Iowa Western Community College",
      "School Type": "College or University",
      "Latitude": 41.2621283,
      "Longitude": -95.8613912
    },
    {
      "Date": "4/3/14",
      "Death": "",
      "Injuries": "",
      "Location": "Kent",
      "State": "OH",
      "School Name": "Kent State University",
      "School Type": "College or University",
      "Latitude": 41.1536674,
      "Longitude": -81.357886
    },
    {
      "Date": "3/30/14",
      "Death": "",
      "Injuries": "",
      "Location": "Savannah",
      "State": "GA",
      "School Name": "Savannah State University",
      "School Type": "College or University",
      "Latitude": 32.0835407,
      "Longitude": -81.0998342
    },
    {
      "Date": "3/23/14",
      "Death": "",
      "Injuries": "",
      "Location": "Newark",
      "State": "DE",
      "School Name": "University of Delaware",
      "School Type": "College or University",
      "Latitude": 39.6852191,
      "Longitude": -75.7508289
    },
    {
      "Date": "3/8/14",
      "Death": "",
      "Injuries": "",
      "Location": "Oshkosh",
      "State": "WI",
      "School Name": "University of Wisconsin - Oshkosh",
      "School Type": "College or University",
      "Latitude": 44.0206919,
      "Longitude": -88.5408574
    },
    {
      "Date": "3/7/14",
      "Death": "",
      "Injuries": "",
      "Location": "Tallulah",
      "State": "LA",
      "School Name": "Madison Parish High School",
      "School Type": "High School",
      "Latitude": 32.4084765,
      "Longitude": -91.1867771
    },
    {
      "Date": "3/2/14",
      "Death": "",
      "Injuries": "",
      "Location": "Westminster",
      "State": "MD",
      "School Name": "McDaniel College",
      "School Type": "College or University",
      "Latitude": 39.5752639,
      "Longitude": -76.9959277
    },
    {
      "Date": "2/20/14",
      "Death": "",
      "Injuries": "",
      "Location": "Raytown",
      "State": "MO",
      "School Name": "Raytown Success Academy",
      "School Type": "Preschool",
      "Latitude": 39.0086171,
      "Longitude": -94.4635638
    },
    {
      "Date": "2/7/14",
      "Death": "",
      "Injuries": "",
      "Location": "Bend",
      "State": "OR",
      "School Name": "Bend High School",
      "School Type": "High School",
      "Latitude": 44.0581728,
      "Longitude": -121.3153096
    },
    {
      "Date": "1/15/14",
      "Death": "",
      "Injuries": "",
      "Location": "Lancaster",
      "State": "PA",
      "School Name": "King Elementary School",
      "School Type": "Elementary School",
      "Latitude": 40.03813,
      "Longitude": -76.3056686
    },
    {
      "Date": "11/21/13",
      "Death": "",
      "Injuries": "",
      "Location": "Rapid City",
      "State": "SD",
      "School Name": "South Dakota School of Mines & Technology",
      "School Type": "College or University",
      "Latitude": 44.081176,
      "Longitude": -103.228006
    },
    {
      "Date": "11/1/13",
      "Death": "",
      "Injuries": "",
      "Location": "Algona",
      "State": "IA",
      "School Name": "Algona High/Middle School",
      "School Type": "Middle School",
      "Latitude": 43.0699663,
      "Longitude": -94.233019
    },
    {
      "Date": "10/15/13",
      "Death": "",
      "Injuries": "",
      "Location": "Austin",
      "State": "TX",
      "School Name": "Lanier High School",
      "School Type": "High School",
      "Latitude": 30.2711286,
      "Longitude": -97.7436995
    },
    {
      "Date": "9/28/13",
      "Death": "",
      "Injuries": "",
      "Location": "Gray",
      "State": "ME",
      "School Name": "Gray-New Gloucester High School",
      "School Type": "High School",
      "Latitude": 43.886016,
      "Longitude": -70.331726
    },
    {
      "Date": "9/21/13",
      "Death": "",
      "Injuries": "",
      "Location": "Savannah",
      "State": "GA",
      "School Name": "Savannah State University",
      "School Type": "College or University",
      "Latitude": 32.0835407,
      "Longitude": -81.0998342
    },
    {
      "Date": "8/22/13",
      "Death": "",
      "Injuries": "",
      "Location": "Memphis",
      "State": "TN",
      "School Name": "Westside Elementary School",
      "School Type": "Elementary School",
      "Latitude": 35.1490215,
      "Longitude": -90.0516285
    },
    {
      "Date": "8/15/13",
      "Death": "",
      "Injuries": "",
      "Location": "Clarksville",
      "State": "TN",
      "School Name": "Northwest High School",
      "School Type": "High School",
      "Latitude": 36.5277607,
      "Longitude": -87.3588703
    },
    {
      "Date": "6/19/13",
      "Death": "",
      "Injuries": "",
      "Location": "West Palm Beach",
      "State": "FL",
      "School Name": "Alexander W. Dreyfoos School of the Arts",
      "School Type": "High School",
      "Latitude": 26.7153425,
      "Longitude": -80.0533746
    },
    {
      "Date": "5/3/13",
      "Death": "",
      "Injuries": "",
      "Location": "Hattiesburg",
      "State": "MS",
      "School Name": "University of Southern Mississippi",
      "School Type": "College or University",
      "Latitude": 31.3271189,
      "Longitude": -89.2903392
    },
    {
      "Date": "4/29/13",
      "Death": "",
      "Injuries": "",
      "Location": "Cincinnati",
      "State": "OH",
      "School Name": "La Salle High School",
      "School Type": "High School",
      "Latitude": 39.1014537,
      "Longitude": -84.5124602
    },
    {
      "Date": "4/15/13",
      "Death": "",
      "Injuries": "",
      "Location": "Grambling",
      "State": "LA",
      "School Name": "Grambling State University",
      "School Type": "College or University",
      "Latitude": 32.5276503,
      "Longitude": -92.7140403
    },
    {
      "Date": "4/13/13",
      "Death": "",
      "Injuries": "",
      "Location": "Elizabeth City",
      "State": "NC",
      "School Name": "Elizabeth City State University",
      "School Type": "College or University",
      "Latitude": 36.2956836,
      "Longitude": -76.2247697
    },
    {
      "Date": "3/21/13",
      "Death": "",
      "Injuries": "",
      "Location": "Southgate",
      "State": "MI",
      "School Name": "Davidson Middle School",
      "School Type": "Middle School",
      "Latitude": 42.20611635,
      "Longitude": -83.20460866
    },
    {
      "Date": "2/27/13",
      "Death": "",
      "Injuries": "",
      "Location": "Atlanta",
      "State": "GA",
      "School Name": "Henry W. Grady High School",
      "School Type": "High School",
      "Latitude": 33.7490987,
      "Longitude": -84.3901849
    },
    {
      "Date": "2/13/13",
      "Death": "",
      "Injuries": "",
      "Location": "San Leandro",
      "State": "CA",
      "School Name": "Hillside Elementary School",
      "School Type": "Elementary School",
      "Latitude": 37.7249296,
      "Longitude": -122.1560768
    },
    {
      "Date": "2/1/13",
      "Death": "",
      "Injuries": "",
      "Location": "Altanta",
      "State": "GA",
      "School Name": "Morehouse College",
      "School Type": "College or University",
      "Latitude": 33.749,
      "Longitude": -84.388
    },
    {
      "Date": "1/8/13",
      "Death": "",
      "Injuries": "",
      "Location": "Fort Myers",
      "State": "FL",
      "School Name": "Apostolic Revival Center Christian School",
      "School Type": "Elementary School",
      "Latitude": 26.640628,
      "Longitude": -81.8723084
    }
  ]